[
  {"name":"Hagia Sophia","cat":"historic","lat":41.0086,"lng":28.9802},
  {"name":"Blue Mosque","cat":"mosque","lat":41.0054,"lng":28.9768},
  {"name":"Topkapı Palace","cat":"palace","lat":41.0115,"lng":28.9833},
  {"name":"Basilica Cistern","cat":"historic","lat":41.0084,"lng":28.9779},
  {"name":"Hippodrome (Sultanahmet Sq.)","cat":"historic","lat":41.0060,"lng":28.9754},
  {"name":"Gülhane Park","cat":"park","lat":41.0134,"lng":28.9814},
  {"name":"Grand Bazaar","cat":"market","lat":41.0106,"lng":28.9680},
  {"name":"Spice Bazaar","cat":"market","lat":41.0165,"lng":28.9705},
  {"name":"Süleymaniye Mosque","cat":"mosque","lat":41.0165,"lng":28.9639},
  {"name":"Galata Bridge","cat":"landmark","lat":41.0201,"lng":28.9737},
  {"name":"Galata Tower","cat":"viewpoint","lat":41.0256,"lng":28.9744},
  {"name":"İstiklal Avenue","cat":"market","lat":41.0335,"lng":28.9778},
  {"name":"Taksim Square","cat":"landmark","lat":41.0370,"lng":28.9857},
  {"name":"İstanbul Modern","cat":"museum","lat":41.0264,"lng":28.9805},
  {"name":"Dolmabahçe Palace","cat":"palace","lat":41.0391,"lng":29.0006},
  {"name":"Yıldız Park","cat":"park","lat":41.0490,"lng":29.0110},
  {"name":"Ortaköy Mosque","cat":"mosque","lat":41.0475,"lng":29.0270},
  {"name":"Bebek Bay","cat":"waterfront","lat":41.0776,"lng":29.0433},
  {"name":"Rumeli Fortress","cat":"historic","lat":41.0847,"lng":29.0566},
  {"name":"Emirgan Park","cat":"park","lat":41.1085,"lng":29.0546},
  {"name":"Maiden's Tower","cat":"viewpoint","lat":41.0211,"lng":29.0041},
  {"name":"Kadıköy & Moda","cat":"waterfront","lat":40.9880,"lng":29.0270},
  {"name":"Beylerbeyi Palace","cat":"palace","lat":41.0428,"lng":29.0419},
  {"name":"Büyük Çamlıca Hill","cat":"viewpoint","lat":41.0289,"lng":29.0686},
  {"name":"Çamlıca Mosque","cat":"mosque","lat":41.0275,"lng":29.0669},
  {"name":"Üsküdar Waterfront","cat":"waterfront","lat":41.0256,"lng":29.0150},
  {"name":"Chora (Kariye) Mosque","cat":"historic","lat":41.0312,"lng":28.9391},
  {"name":"Eyüp Sultan Mosque","cat":"mosque","lat":41.0479,"lng":28.9337},
  {"name":"Pierre Loti Hill","cat":"viewpoint","lat":41.0490,"lng":28.9337},
  {"name":"Balat & Fener","cat":"landmark","lat":41.0296,"lng":28.9490},
  {"name":"Miniatürk","cat":"park","lat":41.0620,"lng":28.9497},
  {"name":"Panorama 1453","cat":"museum","lat":41.0186,"lng":28.9200},
  {"name":"Zorlu Center","cat":"market","lat":41.0668,"lng":29.0170},
  {"name":"Vialand / İsfanbul","cat":"park","lat":41.0730,"lng":28.9330},
  {"name":"Princes' Islands (ferry)","cat":"waterfront","lat":40.8760,"lng":29.1290}
]
